%time,field.header.seq,field.header.stamp,field.header.frame_id,field.twist.linear.x,field.twist.linear.y,field.twist.linear.z,field.twist.angular.x,field.twist.angular.y,field.twist.angular.z
1627477680693993181,5769,1627477680652169216,base_link,0.0210102240202,0.0205776032131,0.0324061543201,0.00289784604684,0.000464940210804,-0.00333028333262
1627477680729305607,5770,1627477680684169216,base_link,0.0209297126704,0.0207069870194,0.0325736622188,-0.00233551277779,0.000937220349442,-0.000489211874083
1627477680760573051,5771,1627477680684169216,base_link,0.0209297126704,0.0207069870194,0.0325736622188,-0.00233551277779,0.000937220349442,-0.000489211874083
1627477680793838806,5772,1627477680749169216,base_link,0.0205173558707,0.0206796953912,0.0325170362714,0.000959699158557,0.00265135755762,-0.000246548792347
1627477680828076141,5773,1627477680782169216,base_link,0.0203450926075,0.0207125685522,0.0325262259929,-0.000612219213508,0.0025351382792,-0.00096717197448
1627477680860550758,5774,1627477680817365056,base_link,0.0200393770982,0.0206163113996,0.0325668481826,0.00155853328761,0.000248651602305,-0.00489821610972
1627477680893900075,5775,1627477680849365056,base_link,0.0198211400757,0.0204570724206,0.0325183719389,-5.30862016603e-05,0.000383209669963,-0.000880678417161
1627477680929007158,5776,1627477680882365056,base_link,0.0198681306012,0.0206115818119,0.0324845273963,-0.00159833685029,0.00214308127761,-0.000718798255548
1627477680960909043,5777,1627477680914581120,base_link,0.0197589499332,0.0206280814629,0.0325666458206,0.00168778607622,-3.20165418088e-05,-0.00431661494076
1627477680994038018,5778,1627477680947581120,base_link,0.0198630461186,0.0207919132536,0.032804132032,-0.000691160093993,0.000557630206458,-6.90696761012e-05
1627477681028287266,5779,1627477680982581120,base_link,0.0195084260361,0.0206028384169,0.0327764330101,-0.00224054884166,0.00139784195926,-0.000809435034171
1627477681060757735,5780,1627477681014782080,base_link,0.0192707773968,0.0204588871156,0.0326500772477,0.00108377472498,-6.94314949214e-05,-0.0036556085106
1627477681094008395,5781,1627477681047782080,base_link,0.0192268606513,0.0204674227764,0.0328577245868,0.000534103717655,0.00285896286368,0.000971964676864
1627477681128438843,5782,1627477681079782080,base_link,0.0191040202431,0.0204080189514,0.0328430254865,-0.00283212028444,0.00274258409627,-0.00290279951878
1627477681160816096,5783,1627477681112990720,base_link,0.0190713293061,0.0204396331256,0.0328789373574,0.00197553797625,0.00284310989082,-0.00263142492622
1627477681193845586,5784,1627477681147990720,base_link,0.0191429129561,0.0205308019406,0.0330882795254,0.000361341633834,0.000148708932102,-0.000939693301916
1627477681228965335,5785,1627477681179990720,base_link,0.0188348692119,0.0203713062203,0.0328694543592,-0.0014327467652,-0.000104585196823,-0.00122748524882
1627477681260631216,5786,1627477681212990720,base_link,0.018641413513,0.0201854081266,0.0328076070347,0.00286979856901,6.37421617284e-05,-0.00419568642974
1627477681293856399,5787,1627477681244990720,base_link,0.0187237647481,0.0201930948732,0.0329088518736,-0.00184792047366,0.00157530256547,-0.00401717517525
1627477681327642913,5788,1627477681277990720,base_link,0.018635123468,0.0201429129947,0.0329231679943,-0.000300759682432,0.00315543590114,-0.00421081995592
1627477681360542171,5789,1627477681311213696,base_link,0.01864229801,0.02007184574,0.0328470893798,0.00163736741524,0.00197065458633,-0.000372813316062
1627477681393814886,5790,1627477681346213696,base_link,0.0188672782264,0.0202516777712,0.032973540198,-0.0019811373204,0.000851222197525,0.000170603627339
1627477681428041154,5791,1627477681378213696,base_link,0.0186494161242,0.0200137633811,0.0328721528768,-0.000141093856655,0.00089581659995,-0.00322653213516
1627477681460845084,5792,1627477681411213696,base_link,0.0185370746266,0.0197805469727,0.0326468258962,0.000345747219399,0.000137728755362,0.000784592702985
1627477681493952881,5793,1627477681443213696,base_link,0.0186555343822,0.0198546158733,0.0326443343114,-0.00344751821831,0.000327836023644,-0.00054563768208
1627477681528754754,5794,1627477681476213696,base_link,0.0186342738185,0.0198113188934,0.0326230171018,0.00234314496629,0.00125549396034,-0.0044306544587
1627477681560583378,5795,1627477681511213696,base_link,0.0187188184198,0.0197995193071,0.0324902594412,-0.000490847742185,0.00113272876479,0.000743319047615
1627477681593810475,5796,1627477681543213696,base_link,0.0189559013592,0.0199839703865,0.0325566484567,-0.00187644921243,2.49198637903e-06,-0.00172510859556
1627477681628045684,5797,1627477681576213696,base_link,0.018876372689,0.0198337037121,0.0325529779064,0.0014355618041,0.000547834206372,-0.00278707058169
1627477681660601072,5798,1627477681608213696,base_link,0.0189528245123,0.0197877719176,0.0326016248199,-0.00151009869296,0.000563591369428,0.00213062716648
1627477681693844360,5799,1627477681641213696,base_link,0.0188832552699,0.0197574349805,0.0325275262876,-0.00022167887073,0.000559601234272,-0.00622266624123
1627477681727861834,5800,1627477681676213696,base_link,0.0189330877306,0.019674762975,0.0324594958993,-0.000658347969875,0.000370351481251,0.00519952690229
1627477681760820801,5801,1627477681708213696,base_link,0.0191279027735,0.0198619086639,0.032465928385,-0.00324697233737,0.00049037206918,-0.00280581298284
1627477681794415606,5802,1627477681741213696,base_link,0.0192306730086,0.019891846098,0.0324453840748,0.00269083539024,0.000294377678074,-0.00470189191401
1627477681827229217,5803,1627477681773213696,base_link,0.0191101065501,0.0197575618478,0.032313887946,-0.00120254559442,-7.68527388573e-06,0.00371420942247
1627477681860462002,5804,1627477681806213696,base_link,0.0191964227594,0.0198265698767,0.032194855032,-0.00157571351156,-0.000141303171404,-0.00330274109729
1627477681893843193,5805,1627477681841213696,base_link,0.0191466311377,0.0197232599355,0.0322208815053,0.00109136069659,0.000864351459313,-0.00288889277726
1627477681927309394,5806,1627477681873213696,base_link,0.0191234603854,0.0196344805765,0.0321752408544,-0.00104117416777,0.000747816171497,0.000825427239761
1627477681960606912,5807,1627477681906213696,base_link,0.0193613960928,0.0198200801546,0.0321409449663,-0.00194987421855,0.000507528427988,-0.00354482769035
1627477681995581021,5808,1627477681938213696,base_link,0.019435761348,0.0198279987633,0.0321291248759,0.00397828314453,0.000375647447072,-0.00254677399062
1627477682027911259,5809,1627477681972213696,base_link,0.0193676888127,0.019750411345,0.0320533380654,-0.00123833911493,0.00026668002829,-0.000474383821711
1627477682060539271,5810,1627477682005213696,base_link,0.0194525477157,0.0198244508946,0.0320614083471,0.000447336002253,0.000424288911745,-0.00506340060383
1627477682093862680,5811,1627477682037213696,base_link,0.0193173052729,0.0195779292182,0.0321035036908,0.00116156658623,0.000950051879045,0.00464756088331
1627477682128173036,5812,1627477682070213696,base_link,0.019513463862,0.0196491729043,0.0320651615308,-0.00194462994114,0.000449206563644,-0.00195795670152
1627477682160634652,5813,1627477682105213696,base_link,0.0195936241406,0.0196453590389,0.0320109773474,-0.000747841433622,0.000455218250863,-0.00549904070795
1627477682195998696,5814,1627477682138213696,base_link,0.0197252323422,0.0196046102937,0.0320498262174,0.00108987465501,0.000760018301662,0.00238169822842
1627477682228288891,5815,1627477682170213696,base_link,0.0198908388838,0.0197468468962,0.0320279026553,-0.00254962639883,2.56695784628e-06,-0.00127103575505
1627477682260467103,5816,1627477682203213696,base_link,0.0197800956434,0.0196217771323,0.0318992377673,0.000952115631662,0.000470679020509,-0.00340943830088
1627477682293865071,5817,1627477682235213696,base_link,0.0197000557991,0.0194432841958,0.031770386893,0.000265635200776,0.000454284483567,0.00342070241459
1627477682328589766,5818,1627477682268213696,base_link,0.0198978853236,0.0195653044042,0.0317653681811,-0.00196159561165,0.00027620466426,-0.0014352297876
1627477682360542388,5819,1627477682303213696,base_link,0.02000865846,0.0196415147465,0.0317691858466,0.000565524562262,0.000470473081805,-0.00400814041495
1627477682394266377,5820,1627477682335213696,base_link,0.0201199211814,0.0196022178177,0.031779839309,0.00119404948782,0.00105219241232,0.00161715992726
1627477682427733647,5821,1627477682368213696,base_link,0.0202914032524,0.0197457891261,0.031772367348,-0.00169160799123,0.00031651975587,-0.000887558795512
1627477682460883903,5822,1627477682400213696,base_link,0.0201732589306,0.0196135584071,0.0316503150879,0.0032185614109,0.00109059363604,-0.00252343178727
1627477682493901992,5823,1627477682433213696,base_link,0.0203039857122,0.019639140225,0.0316435793641,0.00221267109737,0.000706580583937,0.00176316278521
1627477682528204597,5824,1627477682468213696,base_link,0.0203452455699,0.01960965379,0.0315335510973,-0.00173494603951,0.000392461428419,-0.000478194328025
1627477682560656566,5825,1627477682500213696,base_link,0.0204193125476,0.0195108078576,0.0315920708758,0.0017230308149,0.000185451703146,-0.00151341315359
1627477682595850833,5826,1627477682533213696,base_link,0.0207044674046,0.019559690462,0.0314731972428,-0.000147679354995,-0.000525247887708,0.00406900420785
1627477682628584551,5827,1627477682565213696,base_link,0.0207670585012,0.0194314984982,0.0314276339492,0.0004952554591,-0.000988338026218,-0.00234120618552
1627477682661021744,5828,1627477682598213696,base_link,0.0206011293322,0.019207960159,0.0313537005599,0.00215484341606,-0.000213415944017,-0.00383076397702
1627477682694146960,5829,1627477682633213696,base_link,0.0207659948811,0.0191684164809,0.031164896609,0.00141232949682,-0.00128420372494,0.00171306938864
1627477682731009987,5830,1627477682665213696,base_link,0.0207539536742,0.018972785551,0.0311309494726,-0.000898173544556,-0.000815641367808,-0.00114593212493
1627477682760881714,5831,1627477682698213696,base_link,0.0207989769296,0.0189461810254,0.031014342639,-0.000485356897116,-0.000970720662735,-0.00391506403685
1627477682794002761,5832,1627477682730213696,base_link,0.0209637327378,0.0189113187831,0.0311205682761,0.00341862509958,0.000223165960051,0.00128872552887
1627477682827818325,5833,1627477682763213696,base_link,0.0209559385002,0.0187314037395,0.0310137841162,-0.00247375573963,0.000674585811794,-0.00219029816799
1627477682861513104,5834,1627477682798213696,base_link,0.0208475707126,0.0185768737196,0.0309505357636,-0.000583958579227,0.00105242978316,-0.000606064219028
1627477682893903436,5835,1627477682830418240,base_link,0.0209229506019,0.0184279079281,0.0308461642717,0.00272595044225,0.0010946590919,-0.00186717766337
1627477682928977503,5836,1627477682863418240,base_link,0.0209025896707,0.0182391476426,0.0307107689498,-0.00313241709955,0.00164712953847,-0.00121265952475
1627477682960560779,5837,1627477682895418240,base_link,0.0210742257888,0.0182825792364,0.0307580951958,0.00121718354058,0.000838521053083,-0.000390297733247
1627477682993659281,5838,1627477682928418240,base_link,0.0211951143747,0.0181388571482,0.0307391462238,0.0010947722476,0.00184472091496,0.000766037614085
1627477683028084811,5839,1627477682963418240,base_link,0.0212816846629,0.0180468800421,0.030597048385,-0.000961505167652,0.000231155543588,0.000164391007274
1627477683061732027,5840,1627477682996418240,base_link,0.0214455035135,0.0178505826907,0.030603557197,0.00346037046984,0.000202765804715,0.000193580519408
1627477683093828161,5841,1627477683061627136,base_link,0.0215087822656,0.0173892023357,0.0304716425445,0.000866309739649,-0.00273356772959,-0.000702232355252
1627477683127210892,5842,1627477683061627136,base_link,0.0215087822656,0.0173892023357,0.0304716425445,0.000866309739649,-0.00273356772959,-0.000702232355252
1627477683160589173,5843,1627477683093627136,base_link,0.0217014126123,0.0172702993691,0.0304593808966,0.00081090349704,-0.00189595785923,0.000258910469711
1627477683193811365,5844,1627477683161847040,base_link,0.0219053827055,0.0169820422064,0.0303027602549,0.00110068381764,-0.00257230550051,-0.00149951502681
1627477683229097249,5845,1627477683161847040,base_link,0.0219053827055,0.0169820422064,0.0303027602549,0.00110068381764,-0.00257230550051,-0.00149951502681
1627477683260885271,5846,1627477683193847040,base_link,0.0219133243926,0.0167700536239,0.030243659704,0.000353387207724,-0.00299876881763,0.00220245495439
1627477683294063130,5847,1627477683227057216,base_link,0.0218188229319,0.0164977761354,0.0301191739186,-0.00204276945442,-0.00356103433296,-0.00139469397254
1627477683328057827,5848,1627477683259057216,base_link,0.0218734757367,0.0164244059647,0.0301307602149,0.000516371219419,-0.00295974127948,1.09490938485e-05
1627477683360604051,5849,1627477683292057216,base_link,0.0218391823689,0.0161897293372,0.0300491634813,-0.00264936452731,-0.00154204166029,-0.000887543428689
1627477683393877511,5850,1627477683359057216,base_link,0.0217947746895,0.0161161784156,0.0301071212536,0.0015253481688,-0.00172816810664,0.000524226808921
1627477683428135605,5851,1627477683392057216,base_link,0.0215369078538,0.0157966585278,0.0299228534083,-0.00346971163526,-0.00174387870356,0.000116083072498
1627477683460655118,5852,1627477683424252800,base_link,0.0212771888715,0.0155951190055,0.0298312870188,0.000187438563444,-0.00141817436088,-0.00175003218465
1627477683493708999,5853,1627477683457252800,base_link,0.0211672184275,0.0155443617731,0.0297724899765,0.00162490375806,-0.00271440227516,0.00151676824316
1627477683527101229,5854,1627477683457252800,base_link,0.0211672184275,0.0155443617731,0.0297724899765,0.00162490375806,-0.00271440227516,0.00151676824316
1627477683560457899,5855,1627477683492252800,base_link,0.0209803772491,0.0154498328931,0.0297411343512,-0.00354083813727,-0.00149430055171,-0.000546029768884
1627477683593722844,5856,1627477683524477056,base_link,0.0208010850894,0.0154355545899,0.0297289635002,-0.000518408720382,-0.000726252095774,-0.000416598748416
1627477683627810400,5857,1627477683589477056,base_link,0.0203207809587,0.0152639146028,0.0296037468476,-0.00226892530918,-0.00104295369238,-0.000227787764743
1627477683660585285,5858,1627477683622676480,base_link,0.0201265180396,0.0152583316086,0.0294851135391,0.000606845482253,-0.00184186047409,-0.000940044177696
1627477683693866865,5859,1627477683657676480,base_link,0.0198349722425,0.0151104167536,0.0293292492906,0.000834109727293,0.000120839104056,0.00124337000307
1627477683727176566,5860,1627477683688676480,base_link,0.0195747826545,0.0150475720969,0.0292480062666,-0.00342839187942,-0.000781233306043,0.000456664245576
1627477683760487808,5861,1627477683688676480,base_link,0.0195747826545,0.0150475720969,0.0292480062666,-0.00342839187942,-0.000781233306043,0.000456664245576
1627477683794193641,5862,1627477683756906880,base_link,0.0191833010836,0.0151225319503,0.0292408718088,0.00176059117075,-0.00164265139028,0.00241465354338
1627477683828077781,5863,1627477683788906880,base_link,0.0186874930856,0.0148731149121,0.0291468789137,-0.00141559774056,-0.000383265549317,-0.000434056390077
1627477683860690428,5864,1627477683822111424,base_link,0.0183927428827,0.0149188685512,0.0290386113153,-0.00127317837905,-0.000888952403329,-0.000593883218244
1627477683893871571,5865,1627477683855111424,base_link,0.0180065668677,0.0147375974216,0.0289995414977,0.00122924812604,0.00119151978288,-0.000336423283443
1627477683927395909,5866,1627477683887111424,base_link,0.0177122950695,0.0146319890494,0.0288659566187,-0.00227825855836,0.000115616829135,0.0014532355126
1627477683960776655,5867,1627477683920343104,base_link,0.0174862526158,0.0147504073135,0.0288667115877,-0.00291490741074,-0.000147280050442,-0.000549540389329
1627477683993777776,5868,1627477683955343104,base_link,0.0172176584996,0.0147719474392,0.0288091434442,0.00133008044213,-0.000261518522166,-0.000358078163117
1627477684027956978,5869,1627477683987343104,base_link,0.0167413277906,0.0145442633643,0.0286940289285,-0.0020508246962,0.000836636987515,0.000543403904885
1627477684060499103,5870,1627477684020546880,base_link,0.0163720578716,0.0145877863905,0.0286545413697,0.000659684068523,-0.000528066768311,-0.000248204683885
1627477684093858460,5871,1627477684052546880,base_link,0.0159592323032,0.0144738914844,0.0284788483171,7.69312027842e-05,0.000213985331357,0.000655320473015
1627477684128080058,5872,1627477684085546880,base_link,0.015606977605,0.014396966486,0.028363653313,-0.00135562382638,-0.00102078611962,0.000324776628986
1627477684160870338,5873,1627477684120766528,base_link,0.0153779401405,0.0145543827977,0.0283445224845,-0.00466818036512,0.00141733314376,-0.000349889975041
1627477684193861289,5874,1627477684152766528,base_link,0.0150980890077,0.0145955601193,0.0282990280019,-0.000121526420116,0.000586708192714,-0.000175169669092
1627477684228146754,5875,1627477684185766528,base_link,0.0145826097348,0.01442978505,0.0280431540187,0.00182177848183,-0.000628606183454,0.00111450185068
1627477684260518942,5876,1627477684217970048,base_link,0.0142961681862,0.0144606792404,0.0280285182004,-0.00249185995199,0.000537874992006,-0.00034154439345
1627477684293693623,5877,1627477684250970048,base_link,0.0138568832432,0.0145130495573,0.02790992313,-0.00316250068136,0.00161833281163,-0.00018033455126
1627477684331070066,5878,1627477684285970048,base_link,0.0134968423938,0.0145884174208,0.0277940038988,0.000324992812239,0.00306027336046,0.000198545865715
1627477684360551381,5879,1627477684317970048,base_link,0.0133483733561,0.0147475614793,0.0277384926835,-0.00327048823237,0.00293434225023,-0.000500704394653
1627477684393909286,5880,1627477684350970048,base_link,0.013153402927,0.01497726578,0.0275816164112,0.000169959734194,0.00336694810539,0.000199219444767
1627477684428193067,5881,1627477684382970048,base_link,0.0128798480047,0.0150040790455,0.0274085187043,-0.000396787188947,0.00109129422344,0.0019348221831
1627477684460458170,5882,1627477684416176128,base_link,0.0124890213454,0.0150243940955,0.0272592528156,-0.00182740692981,0.000663038808852,0.00118443439715
1627477684493877462,5883,1627477684451176128,base_link,0.0121999983737,0.0150658322463,0.0270963098632,0.000942468410358,0.002959378995,-0.00109186628833
1627477684527166293,5884,1627477684483176128,base_link,0.0120710468202,0.0152093850826,0.0269968175341,0.00091135839466,0.00239167176187,0.00045913644135
1627477684561787355,5885,1627477684516389632,base_link,0.0119277440936,0.0153582775263,0.0268396286386,-0.00352348899469,0.00347462669015,0.0015542623587
1627477684594020859,5886,1627477684548389632,base_link,0.0118513619028,0.0154101429157,0.0267680433859,0.0010229498148,0.0034053970594,-0.000468536512926
1627477684628278772,5887,1627477684581389632,base_link,0.0117154145085,0.0154238001264,0.0265744317682,0.000323596643284,-0.000259920023382,0.00383470696397
1627477684660626408,5888,1627477684616591872,base_link,0.0114787582441,0.0153982153402,0.0262425406574,-0.0009828240145,-0.000935111893341,-0.00393691565841
1627477684693903502,5889,1627477684648591872,base_link,0.0112662186613,0.0153196661712,0.0261428443361,0.00180294958409,-0.000164872501045,0.00380391161889
1627477684728096492,5890,1627477684681591872,base_link,0.0112703767725,0.015404041917,0.0261498999332,0.000214278697968,0.00231405626982,-0.000189651269466
1627477684760540145,5891,1627477684714797696,base_link,0.0112044184706,0.015513033665,0.0259901690235,-0.00444253021851,0.0024594089482,-0.00206903112121
1627477684793651228,5892,1627477684746797696,base_link,0.0112549861158,0.0156514273202,0.0259263306215,0.00105043814983,0.00351018505171,0.00117846322246
1627477684828722745,5893,1627477684779797696,base_link,0.0109091451473,0.0155767097855,0.0257185008067,0.000152695225552,-3.51306516677e-05,0.0016741650179
1627477684860444119,5894,1627477684814797696,base_link,0.0106175975078,0.0155859357693,0.0253569505235,-0.000823843991384,0.000195788801648,7.17821530998e-05
1627477684893711018,5895,1627477684846797696,base_link,0.0105309669913,0.0156816803485,0.0253085537827,0.00101892696694,0.00311443768442,-0.000196133041754
1627477684928916460,5896,1627477684879797696,base_link,0.0103741672774,0.015714639671,0.0252042819941,-0.00496303709224,0.00404460448772,0.000332613009959
1627477684960562557,5897,1627477684912016832,base_link,0.010257712535,0.0157962516103,0.0250742662994,-0.000299202511087,0.0052799237892,0.00421525444835
1627477684993942742,5898,1627477684945016832,base_link,0.0103888908667,0.0159346931813,0.0250124412406,-0.00122759595979,0.00552835408598,-0.000892193987966
1627477685028315945,5899,1627477684980016832,base_link,0.0102650194148,0.0159793918309,0.0248781866358,-0.00516904518008,0.00506214285269,0.000962718273513
1627477685060513234,5900,1627477685012016832,base_link,0.0101029945947,0.0159553522715,0.024680248412,0.000675030983984,0.00470642978325,3.05990688503e-05
1627477685093776896,5901,1627477685045016832,base_link,0.0102692239295,0.0161149105612,0.0246583393557,-0.000601599051151,0.00541410967708,-0.00015581981279
1627477685127733127,5902,1627477685077016832,base_link,0.0103247129167,0.0162599045002,0.0245320709496,-0.00279036397114,0.00476764561608,0.000885047251359
1627477685161527500,5903,1627477685110016832,base_link,0.0106678192854,0.0164807132169,0.0244754324205,0.000988314975984,0.00477276509628,0.00104211177677
1627477685193858136,5904,1627477685145016832,base_link,0.0109865167396,0.0166971692806,0.0243552397941,-0.00141121295746,0.00306499516591,4.0213111788e-05
1627477685228855318,5905,1627477685177016832,base_link,0.0110448405202,0.0167086935175,0.0241580396314,-0.000352172530256,0.0030681011267,-0.000956363976002
1627477685260593205,5906,1627477685210016832,base_link,0.0113187416805,0.0168542920965,0.0240356347987,0.0030358445365,0.00112349749543,0.000697815790772
1627477685293799754,5907,1627477685242016832,base_link,0.0114671915726,0.016865194377,0.0239376410776,-0.00285822991282,0.00259895436466,0.000571987708099
1627477685328319109,5908,1627477685275016832,base_link,0.0116814597091,0.0170343865106,0.0236690785448,0.000245501636527,0.00248338049278,-0.00260374485515
1627477685360585627,5909,1627477685310016832,base_link,0.0122320471515,0.0172835751874,0.0236488370217,0.00206273212098,0.0022607089486,0.000362536404282
1627477685393807706,5910,1627477685342016832,base_link,0.012544555014,0.0174417061342,0.0235711492098,0.000290515832603,-0.000857732025906,0.00107439653948
1627477685427732072,5911,1627477685375016832,base_link,0.0127682429709,0.017519728846,0.0234185292113,0.00143721583299,-0.00044212222565,0.000215253094211
1627477685460612025,5912,1627477685409016832,base_link,0.0132023875419,0.0176390295708,0.0233205669076,0.00192099309061,0.000116655603051,0.00146923703142
1627477685493795761,5913,1627477685441016832,base_link,0.0133628595467,0.0176603175865,0.0231359192542,-0.00260838819668,-0.000147231272422,1.71419233084e-05
1627477685527592802,5914,1627477685474016832,base_link,0.0136331578105,0.0178000600365,0.0229578742033,0.000795948086306,0.00018816255033,-0.000833153957501
1627477685561115303,5915,1627477685506016832,base_link,0.014091727943,0.0179740789934,0.0228810963795,0.00172312487848,0.000605463515967,0.00027082185261
1627477685595401242,5916,1627477685539016832,base_link,0.0144760839348,0.0182121882781,0.02274889562,-0.00284429965541,0.00149862281978,0.00181281822734
1627477685628046142,5917,1627477685572016832,base_link,0.0147014053931,0.0181927391003,0.022627750319,0.00155700836331,0.000792690785602,-0.00133879575878
1627477685660560408,5918,1627477685607016832,base_link,0.0151164581585,0.0183819887987,0.0225722377174,-0.00126186851412,-1.99695350602e-05,0.000115442322567
1627477685693798260,5919,1627477685639016832,base_link,0.0153101750576,0.0184053194274,0.0223895691482,-0.00118435593322,0.000282995635644,-0.000124506885186
1627477685727350561,5920,1627477685672016832,base_link,0.015594324657,0.0184432678837,0.0221482022568,0.00148591317702,0.000755095970817,-0.00076816114597
1627477685760536087,5921,1627477685704016832,base_link,0.0160381102007,0.0186369461582,0.0220283449534,-0.000107711413875,-0.00126395572443,0.00216573360376
1627477685793809409,5922,1627477685737016832,base_link,0.016426678916,0.018844918365,0.0219177169869,-0.00213941070251,6.38385536149e-05,-3.97416297346e-05
1627477685827623124,5923,1627477685772016832,base_link,0.0166520480895,0.0188598738333,0.0218142309867,0.00165541144088,0.000719298899639,0.000533084967174
1627477685860629332,5924,1627477685804016832,base_link,0.0170079527912,0.0189554023578,0.0217345352322,-0.00104550854303,0.00024550256785,-3.91309149563e-05
1627477685896057891,5925,1627477685837016832,base_link,0.0171663530367,0.0189983472864,0.0216034205879,-0.00131007318851,0.00083958345931,0.000471936073154
1627477685927141488,5926,1627477685869016832,base_link,0.0175785721665,0.0191741787396,0.0214824772018,0.00143691932317,0.000513982609846,0.000813320511952
1627477685961075527,5927,1627477685902016832,base_link,0.0179224507401,0.0192229525472,0.0212999755299,-0.000106856343336,0.0019531508442,0.00236214860342
1627477685993885334,5928,1627477685937016832,base_link,0.0183148549321,0.0194420695322,0.0212198625856,-5.47902891412e-05,-0.00109448784497,-0.000135254114866
1627477686029047382,5929,1627477685969016832,base_link,0.0187169470525,0.0196347888765,0.0211034837291,0.000341586885042,9.41264443099e-05,0.000608176807873
1627477686061376357,5930,1627477686002016832,base_link,0.0188388896675,0.0194651923457,0.0210059415643,0.00278423191048,0.00171369372401,0.00113154156134
1627477686094003694,5931,1627477686034016832,base_link,0.0190184339539,0.0194498022485,0.0208807104274,-0.00208560563624,0.00100529391784,0.00123817881104
1627477686128398298,5932,1627477686067016832,base_link,0.0194807749331,0.0196641938419,0.0207751075907,0.0012134128483,0.000577101367526,-0.000468136975542
1627477686160935273,5933,1627477686102016832,base_link,0.0198873290915,0.0197154843118,0.0206577095315,0.000624301843345,0.00107189000119,0.000763636548072
1627477686193819787,5934,1627477686134016832,base_link,0.0202309970404,0.0198770974219,0.0205630184363,-0.0010063839145,-0.00062794436235,6.49392604828e-05
1627477686228247301,5935,1627477686167016832,base_link,0.0206623611389,0.0199717092077,0.0204978428426,0.00233622221276,-2.62481626123e-05,0.00315927807242
1627477686261061477,5936,1627477686199016832,base_link,0.0207715432953,0.0198813246878,0.020290725233,-0.00149737857282,0.000338754383847,-0.000801348360255
1627477686294518594,5937,1627477686232016832,base_link,0.0211494315094,0.0200268912144,0.0202238403992,0.000269513344392,0.000411013723351,-3.33460047841e-06
1627477686327970594,5938,1627477686267016832,base_link,0.021430086455,0.0199827058005,0.0200921889164,0.00175932305865,0.000774756306782,0.00178893306293
1627477686360722582,5939,1627477686299016832,base_link,0.0217281300052,0.0200318473276,0.0199358043981,-0.00234123179689,0.000233947765082,0.000341544626281
1627477686394245909,5940,1627477686332016832,base_link,0.0222815211595,0.020318179745,0.0198250994095,0.00110401201528,0.000385088264011,-0.000733204651624
1627477686428029954,5941,1627477686364016832,base_link,0.0226004030875,0.0202836744952,0.019597215465,0.00023213820532,0.00121958681848,0.00116668234114
1627477686460761232,5942,1627477686397016832,base_link,0.0226963692242,0.0201797980857,0.019484965171,0.000924967695028,-0.00108725798782,0.000241760862991
1627477686493845447,5943,1627477686430216000,base_link,0.02315378947,0.0202662491821,0.019379756767,0.00377284595743,-0.00126612000167,0.00169060542248
1627477686528608753,5944,1627477686465216000,base_link,0.0234478044477,0.0201887092967,0.0192338931537,-0.000513547216542,0.000275688595138,0.00105429301038
1627477686560657906,5945,1627477686497216000,base_link,0.0237386389621,0.0202350354916,0.0190477544767,-0.00215083616786,-6.47243577987e-05,0.000109079992399
1627477686593733705,5946,1627477686530216000,base_link,0.024331565343,0.0203061321703,0.0189065447576,0.00228675687686,0.000914121628739,1.36811286211e-05
1627477686627898631,5947,1627477686562216000,base_link,0.0245871183565,0.0202808631598,0.0187329533862,0.000687089399435,-0.0025736563839,0.00219563185237
1627477686660553181,5948,1627477686595216000,base_link,0.0248921520826,0.0202150225567,0.0186541149208,0.00152221194003,-0.0026504995767,-0.000288095558062
1627477686693886587,5949,1627477686630431552,base_link,0.0250569172672,0.0200582886621,0.0185578804811,0.00256204092875,-0.00187594082672,0.00105752877425
1627477686728801128,5950,1627477686662431552,base_link,0.0252371132391,0.0199677306493,0.0183919155936,-0.00283113936894,-0.00133019196801,0.000815939274617
1627477686760681118,5951,1627477686695431552,base_link,0.0256435300451,0.020131468109,0.0182972584201,-8.22492875159e-05,0.000165472272784,0.000512429163791
1627477686793840690,5952,1627477686727431552,base_link,0.0259089966564,0.0200866108494,0.0181676502515,-0.000143749173731,2.30136793107e-05,-9.26679931581e-05
1627477686827917053,5953,1627477686760431552,base_link,0.026050663774,0.0200867383326,0.0180627628241,-0.000328072463162,-0.00246363319457,0.00107768690214
1627477686860476921,5954,1627477686795431552,base_link,0.0262614079774,0.0201175606991,0.0177490780492,0.000893340446055,-0.00338228582405,-0.000953339505941
1627477686893803178,5955,1627477686827622016,base_link,0.0262505170152,0.0199263535729,0.017681814302,0.00147677864879,-0.00277848541737,0.000553803169169
1627477686927414912,5956,1627477686860622016,base_link,0.0263371584296,0.0199089936878,0.0175489036587,-0.00357192289084,-0.000954241957515,0.00135990604758
1627477686961379794,5957,1627477686892622016,base_link,0.0265793000999,0.0200548383583,0.0173949489548,0.00141886959318,-7.75185180828e-05,0.000493257306516
1627477686994161542,5958,1627477686925861376,base_link,0.0267251985655,0.020051533513,0.0172279179716,-1.26955565065e-05,0.000453379470855,0.000727026374079
1627477687027625775,5959,1627477686960861376,base_link,0.0268225348724,0.0200897955883,0.0170293825055,-0.000395186129026,-0.00138519261964,-0.000544795533642
1627477687060556121,5960,1627477687025861376,base_link,0.0268661570405,0.0198632764454,0.0167944578681,0.000645472551696,-0.00303119258024,-0.00181034882553
1627477687093837667,5961,1627477687025861376,base_link,0.0268661570405,0.0198632764454,0.0167944578681,0.000645472551696,-0.00303119258024,-0.00181034882553
1627477687127242587,5962,1627477687090861376,base_link,0.0270959147418,0.0198171988447,0.0164795311205,0.00221722899005,-0.000543291214854,0.00238521536812
1627477687161050148,5963,1627477687090861376,base_link,0.0270959147418,0.0198171988447,0.0164795311205,0.00221722899005,-0.000543291214854,0.00238521536812
1627477687194046815,5964,1627477687157091264,base_link,0.0274282798342,0.0199534577354,0.0162254278914,0.000981163349934,-0.00177578569856,-0.000445347512141
1627477687228031477,5965,1627477687190091264,base_link,0.0272443234045,0.0197078708985,0.0160905762811,0.00306819239631,-0.00260415370576,0.00048865005374
1627477687260667778,5966,1627477687225290176,base_link,0.0271023059933,0.0195801271104,0.0158000393772,-0.000976429844741,-0.00281888060272,0.00157134304754
1627477687294276429,5967,1627477687225290176,base_link,0.0271023059933,0.0195801271104,0.0158000393772,-0.000976429844741,-0.00281888060272,0.00157134304754
1627477687327216555,5968,1627477687258290176,base_link,0.0270234291027,0.0194685995066,0.0155903240824,0.00158847286366,-0.0029560062103,0.00161812233273
1627477687361047532,5969,1627477687290290176,base_link,0.0270759321888,0.0194528362476,0.0155706857817,-0.000471861800179,3.89120541513e-05,0.00116415624507
1627477687393841658,5970,1627477687323290176,base_link,0.0270055974778,0.0194186798885,0.0154106743651,-0.000464986194856,-0.00131389754824,-0.000239673536271
1627477687427911279,5971,1627477687388290176,base_link,0.0268162769793,0.0191516717669,0.0150796583184,0.00167415628675,-0.00279159401543,0.000310471048579
1627477687460535500,5972,1627477687423490112,base_link,0.0265650098502,0.0189889262852,0.014861382094,-0.000569838972297,-0.00235288776457,0.00262336805463
1627477687494059183,5973,1627477687423490112,base_link,0.0265650098502,0.0189889262852,0.014861382094,-0.000569838972297,-0.00235288776457,0.00262336805463
1627477687527350944,5974,1627477687488490112,base_link,0.0262875921261,0.0187541688932,0.0147078451736,-0.000107729574665,0.000675024057273,0.000996794784442
1627477687560378291,5975,1627477687520712320,base_link,0.0261352593537,0.0186279042093,0.0145682118896,-0.000944753817748,0.000702901859768,-0.000669506844133
1627477687593817429,5976,1627477687553712320,base_link,0.0261618169597,0.0185839022032,0.0144520803386,0.00287778582424,0.000135395326652,0.00181494955905
1627477687627138773,5977,1627477687553712320,base_link,0.0261618169597,0.0185839022032,0.0144520803386,0.00287778582424,0.000135395326652,0.00181494955905
1627477687660400295,5978,1627477687620932224,base_link,0.0254412483422,0.0180395113158,0.0139780286254,-0.00162920216098,-0.0017177896807,-0.00152451172471
1627477687694380257,5979,1627477687653932224,base_link,0.025313498227,0.0178734234611,0.0139547297534,0.00232347799465,0.00024974218104,0.00224606390111
1627477687727200482,5980,1627477687685932224,base_link,0.0251082574993,0.0177314070247,0.0139428721312,-0.00272587081417,0.00121305335779,0.000225721858442
1627477687760467502,5981,1627477687685932224,base_link,0.0251082574993,0.0177314070247,0.0139428721312,-0.00272587081417,0.00121305335779,0.000225721858442
1627477687793993575,5982,1627477687754147776,base_link,0.0248527301369,0.0175844686306,0.0134678341932,-9.38340090215e-05,-0.000474544242024,0.000101922079921
1627477687827654850,5983,1627477687786147776,base_link,0.0243919061528,0.0172049841871,0.0133248246134,0.000946541666053,-0.000508248573169,0.00038084841799
1627477687860476742,5984,1627477687819147776,base_link,0.0242169922256,0.0170863824185,0.0133389816859,-0.00253161229193,0.000309798750095,0.00031766644679
1627477687894126598,5985,1627477687851147776,base_link,0.0238739534476,0.016850289575,0.0131864206227,0.000166871352121,0.000283225206658,0.000309137860313
1627477687928391241,5986,1627477687884147776,base_link,0.0235908112542,0.0166049589671,0.0130823781476,0.000585222966038,0.00159324379638,0.00227250833996
1627477687960672589,5987,1627477687919357440,base_link,0.0235495324245,0.0166222668088,0.0128967476969,-0.0019151896704,-0.000111280940473,0.00128004769795
1627477687993978990,5988,1627477687951357440,base_link,0.0234003837561,0.0165627643915,0.0127095240497,0.00164595397655,-1.22422352433e-06,-0.00233330903575
1627477688028192546,5989,1627477687984357440,base_link,0.0230998888221,0.0161982674302,0.0125021694518,0.000411154702306,-0.000311183161102,0.00296665402129
1627477688060629581,5990,1627477688016560192,base_link,0.0229809391146,0.0161438219151,0.0124543630999,-0.00308535015211,0.00049076077994,0.0027408497408
1627477688093735587,5991,1627477688049560192,base_link,0.0227747154887,0.0159710846706,0.012263526519,-0.00130310177337,-0.00140125572216,-0.00124864350073
1627477688127089048,5992,1627477688049560192,base_link,0.0227747154887,0.0159710846706,0.012263526519,-0.00130310177337,-0.00140125572216,-0.00124864350073
1627477688160403032,5993,1627477688084560192,base_link,0.0225867160522,0.01575989271,0.0121427723318,-0.000357395736501,4.35812398791e-06,0.00157448870596
1627477688193766441,5994,1627477688149560192,base_link,0.0223111367944,0.0156407738781,0.0118908907397,-0.000231081387028,-0.00124115473591,0.000744054093957
1627477688228225732,5995,1627477688182560192,base_link,0.022049449516,0.0154875119691,0.0116429841638,0.000611073570326,-0.0032215223182,0.00404315674677
1627477688260667645,5996,1627477688214762176,base_link,0.0217094332454,0.015239519153,0.0115217924704,-0.0019597732462,-0.00233496911824,-0.000474192202091
1627477688293752838,5997,1627477688247762176,base_link,0.0213926954979,0.0151102727095,0.0114717982007,-0.000515747815371,-0.0016580496449,0.000306545291096
1627477688328144377,5998,1627477688282762176,base_link,0.02124696717,0.0150543037474,0.0113973787915,0.000512436265126,-0.000183118507266,0.000920288846828
1627477688360565360,5999,1627477688314762176,base_link,0.0209699042794,0.014934365813,0.0113189637688,-0.00184734421782,-0.00199901638553,0.00102284364402
1627477688393882679,6000,1627477688347762176,base_link,0.020697916469,0.01492752167,0.0112584019115,-0.00270517845638,0.000225045951083,0.000778597546741
1627477688427740493,6001,1627477688379762176,base_link,0.0204236664602,0.0148054468937,0.0109111888267,0.000454380293377,-0.00112290494144,0.00222873827443
1627477688460483946,6002,1627477688412762176,base_link,0.0199858631595,0.0146050225088,0.0108334830791,-0.00187651719898,-0.000873922137544,0.00166024942882
1627477688493789161,6003,1627477688447762176,base_link,0.0196317689737,0.0145521339614,0.0107414595696,-0.00217712903395,0.000116550596431,0.000797525164671
1627477688530321415,6004,1627477688479762176,base_link,0.019378813085,0.0145242903886,0.0107161597945,0.000504035037011,0.00103367504198,0.00172306236345
1627477688560462580,6005,1627477688479762176,base_link,0.019378813085,0.0145242903886,0.0107161597945,0.000504035037011,0.00103367504198,0.00172306236345
1627477688593813682,6006,1627477688544762176,base_link,0.0188671145241,0.0145568232443,0.0103529432436,0.000417197705247,0.000771518272813,-0.0023550845217
1627477688628167309,6007,1627477688577762176,base_link,0.0184188176411,0.0142914878054,0.0101564805167,0.000614294083789,-0.000378186465241,0.00636129081249
1627477688660529518,6008,1627477688612983872,base_link,0.017964881325,0.0140963038121,0.0100938993963,-0.00233680242673,-0.00108751887456,-0.000641069607809
1627477688694035756,6009,1627477688644983872,base_link,0.0176444914088,0.0141361626525,0.0100082204732,0.000611550058238,-0.00024596741423,-0.004224749282
1627477688728193698,6010,1627477688677983872,base_link,0.0172333636771,0.0139963104367,0.00993574804806,0.00137676205486,-0.000389369553886,0.00302461581305
1627477688761653588,6011,1627477688677983872,base_link,0.0172333636771,0.0139963104367,0.00993574804806,0.00137676205486,-0.000389369553886,0.00302461581305
1627477688793830246,6012,1627477688742983872,base_link,0.0166116927446,0.0140774176257,0.00981355613848,0.00157780817244,0.000360463745892,0.000753251952119
1627477688828058397,6013,1627477688777983872,base_link,0.0161050833303,0.0138973672132,0.0096673840798,0.0013212650083,0.00146805564873,0.00181179551873
1627477688860806492,6014,1627477688809983872,base_link,0.0155700540845,0.0137246205504,0.00956524552324,-0.00270089320838,0.000810735742562,0.00176207453478
1627477688894011522,6015,1627477688841983872,base_link,0.0153117787052,0.0138173451558,0.00958277473976,-0.000347714871168,0.00172164058313,0.00104474136606
1627477688927629367,6016,1627477688876983872,base_link,0.0149608988171,0.0137217129243,0.009478442224,-0.00196411227807,0.00253624119796,0.00084625207819
1627477688960542409,6017,1627477688876983872,base_link,0.0149608988171,0.0137217129243,0.009478442224,-0.00196411227807,0.00253624119796,0.00084625207819
1627477688994057892,6018,1627477688941983872,base_link,0.0144174979124,0.0138353686335,0.00927324073183,0.00195732945576,0.0018403197173,0.000218762317672
1627477689029498825,6019,1627477688974983872,base_link,0.0139689551669,0.0137743558355,0.00910819394858,-0.0025444207713,0.000566339935176,0.00181945704389
1627477689060901781,6020,1627477689006983872,base_link,0.0135187747027,0.0136784288949,0.00893097029511,-0.000156303285621,0.000308669288643,-0.00223965407349
1627477689095203139,6021,1627477689039983872,base_link,0.0132453681185,0.0137450894861,0.00887955356902,0.00146128365304,0.00046956143342,0.00287715881132
1627477689127462592,6022,1627477689074983872,base_link,0.0129110721029,0.013763083743,0.00883431849616,-0.00290195085108,0.00173583428841,0.00170370563865
1627477689160775102,6023,1627477689106983872,base_link,0.0126459307376,0.0138785065527,0.00866620191333,-0.0014049342135,0.00187390833162,-0.00330834067427
1627477689193951779,6024,1627477689139983872,base_link,0.0125240414199,0.014022920763,0.0084885314716,0.00055152841378,0.00196812767535,0.00412569055334
1627477689227979036,6025,1627477689171983872,base_link,0.012147165728,0.0140594838423,0.00846388366214,-0.00126677425578,0.000448266160674,-0.00229858816601
1627477689261382165,6026,1627477689204983872,base_link,0.0119177220011,0.0141317634993,0.00843860167827,0.00205363286659,0.000509752426296,-2.09542922676e-05
1627477689294013657,6027,1627477689239983872,base_link,0.0116305701828,0.014124302745,0.0082457330752,-0.0010669126641,0.000691879482474,0.0030199023895
1627477689329526110,6028,1627477689271983872,base_link,0.0113412393555,0.0142276151837,0.00809053953091,-0.00242047291249,0.00267998198979,0.000375576550141
1627477689361062912,6029,1627477689304983872,base_link,0.0112683068998,0.0143759574409,0.00797935924154,0.00118416396435,0.00235141720623,0.00055944477208
1627477689393689955,6030,1627477689336983872,base_link,0.0111361439987,0.0144219434667,0.0078568386871,-0.00114694680087,0.00226731295697,0.00236197840422
1627477689428453510,6031,1627477689369983872,base_link,0.0108695379343,0.0144413810549,0.00781754933147,0.000183954252861,0.000558419735171,-0.00225073588081
1627477689460503101,6032,1627477689404983872,base_link,0.0107161679659,0.0145576932082,0.00758468573295,0.000976616400294,-0.000109393964522,0.00384486583062
1627477689494135551,6033,1627477689436983872,base_link,0.0104491219373,0.0145086583015,0.00743327195261,-0.0002390347654,0.00196165312082,-0.00197655311786
1627477689527767811,6034,1627477689469983872,base_link,0.0102441674063,0.0145728014706,0.00730016182147,0.000282378867269,0.000901803316083,8.20637214929e-05
1627477689560514669,6035,1627477689501983872,base_link,0.0102064772185,0.0146962052617,0.00707287889779,0.000554625759833,0.00212607579306,0.00494757900015
1627477689593810698,6036,1627477689534983872,base_link,0.0101719874875,0.014801368008,0.00700026542446,-0.00130421272479,0.00121233984828,-0.000656337011606
1627477689631991307,6037,1627477689569983872,base_link,0.00996674828016,0.0148743620211,0.00697644972592,0.000504076830111,0.000933578005061,-0.00183735601604
1627477689660533072,6038,1627477689601983872,base_link,0.00989733174744,0.0148853720686,0.0068944420749,0.00128992926329,0.0017423639074,0.00290221883915
1627477689694148451,6039,1627477689634983872,base_link,0.0096891742917,0.0148383437524,0.00685483029243,-0.000334604643285,0.0011304684449,0.00104192225263
1627477689728189284,6040,1627477689666983872,base_link,0.00969212094499,0.01497394251,0.00669901449545,0.00103755807504,0.00279158377089,-0.00457925442606
1627477689760792153,6041,1627477689699983872,base_link,0.00963858710904,0.0149308114684,0.00647264460842,-0.000167369144037,0.00225208350457,0.00615052226931
1627477689794004545,6042,1627477689734983872,base_link,0.00965037702665,0.0150759589373,0.00647523822513,-0.00140174734406,0.00107166892849,8.03356524557e-05
1627477689827477289,6043,1627477689766983872,base_link,0.00970057859527,0.0151936276584,0.00627138370193,0.000775674241595,-0.000421600532718,-0.000145549420267
1627477689860648810,6044,1627477689799983872,base_link,0.00948739522776,0.0150541379987,0.00624931626098,-0.00042221066542,-2.95587815344e-05,0.00282148527913
1627477689893816484,6045,1627477689832983872,base_link,0.00935442881674,0.015048624099,0.0061840235,-0.00176480982918,0.00144137314055,-0.000471911393106
1627477689927179660,6046,1627477689864983872,base_link,0.00940910403578,0.0151483735184,0.0062376126213,0.00211643031798,0.00298244203441,-0.00107029476203
1627477689960486393,6047,1627477689897983872,base_link,0.00940671292641,0.0151884048012,0.00598616363933,-0.000477445893921,0.00236532930285,0.0048992196098
1627477689995268835,6048,1627477689964983872,base_link,0.00951098137106,0.0153680004592,0.00585098366959,0.00205207662657,0.00225144973956,-0.000596765661612
1627477690027184447,6049,1627477689964983872,base_link,0.00951098137106,0.0153680004592,0.00585098366959,0.00205207662657,0.00225144973956,-0.000596765661612
1627477690060436575,6050,1627477689997983872,base_link,0.00926944402462,0.0152586685423,0.00585346303583,-0.00145253865048,0.00183198740706,0.00252002989873
1627477690094012443,6051,1627477690029983872,base_link,0.0093101689734,0.0153715521188,0.00571457249282,0.00139476859476,0.00350322970189,-0.00438149645925
1627477690127343251,6052,1627477690062983872,base_link,0.00925384954638,0.01531373148,0.00564323077387,0.000705362530425,0.00299843517132,0.003062333446
1627477690160595612,6053,1627477690097983872,base_link,0.00940430864087,0.0154491299615,0.00553533561884,-0.00251622730866,0.00376800727099,-0.000357502140105
1627477690194081949,6054,1627477690129983872,base_link,0.00967495586269,0.0155982364628,0.00547202523269,0.00183898932301,0.00370514229871,-0.00202952604741
1627477690227756535,6055,1627477690162983872,base_link,0.00975637529855,0.0155008185569,0.00543946299474,0.000891082454473,0.00316557358019,0.00413173343986
1627477690260825516,6056,1627477690194983872,base_link,0.00965528205291,0.0154484944222,0.00532504487775,-0.000680345925502,0.0024800368119,-0.00190698402002
1627477690294057393,6057,1627477690228188160,base_link,0.00988606876719,0.0154236173059,0.00539474572918,0.00261472770944,0.00237429491244,-0.000133824534714
1627477690327134865,6058,1627477690295188160,base_link,0.0102074803474,0.0153981447709,0.0051278021781,-0.00117080949713,0.00278820935637,-0.00250678183511
1627477690360680871,6059,1627477690295188160,base_link,0.0102074803474,0.0153981447709,0.0051278021781,-0.00117080949713,0.00278820935637,-0.00250678183511
1627477690393830394,6060,1627477690328398336,base_link,0.0106442072824,0.0154754879129,0.00500901389884,0.00166206574067,0.00309218559414,0.00638106837869
1627477690428271783,6061,1627477690360398336,base_link,0.0108308593315,0.0155124935634,0.00486730908469,-0.00225444813259,0.00278225867078,-0.000388406217098
1627477690460923071,6062,1627477690393398336,base_link,0.0111074294943,0.0155224437761,0.00493745054513,-0.00152217620052,0.000504522118717,0.00198195734993
1627477690494057982,6063,1627477690460398336,base_link,0.0115777635752,0.0154793529669,0.00476391500391,0.000532207894139,0.00180777232163,0.00483541190624
1627477690527636072,6064,1627477690460398336,base_link,0.0115777635752,0.0154793529669,0.00476391500391,0.000532207894139,0.00180777232163,0.00483541190624
1627477690560834269,6065,1627477690493398336,base_link,0.0120319188848,0.0156017545497,0.00459491297214,-0.00131593993865,0.00139512098394,-0.000352939357981
1627477690593768778,6066,1627477690525398336,base_link,0.012381954075,0.0156509799618,0.00467840861902,0.00149798381608,0.0024137259461,0.000399183481932
1627477690627720538,6067,1627477690559398336,base_link,0.0127658318591,0.0156207264374,0.00466400004989,-0.00101277465001,0.00116336566862,0.00130974210333
1627477690660394347,6068,1627477690592398336,base_link,0.0131343726641,0.0157323390204,0.00452958488087,0.00183709315024,0.002557892818,-0.00370749155991
1627477690693899188,6069,1627477690657398336,base_link,0.0137474991555,0.0155823714872,0.00425947460943,-0.0038658415433,0.00110771448817,0.00180841400288
1627477690728403466,6070,1627477690690398336,base_link,0.0143057579294,0.0157263664297,0.00409886282064,0.00338101666421,0.00150093971752,0.00285949907266
1627477690760618285,6071,1627477690725611072,base_link,0.0148064496566,0.0156739157266,0.00398427040975,0.000824423041195,0.000911789189558,-0.00471721589565
1627477690794533062,6072,1627477690725611072,base_link,0.0148064496566,0.0156739157266,0.00398427040975,0.000824423041195,0.000911789189558,-0.00471721589565
1627477690827940530,6073,1627477690790611072,base_link,0.015693187703,0.0156226673247,0.00375808474153,0.00397979700938,0.00054628867656,0.00215618638322
1627477690860814764,6074,1627477690790611072,base_link,0.015693187703,0.0156226673247,0.00375808474153,0.00397979700938,0.00054628867656,0.00215618638322
1627477690893953781,6075,1627477690822827648,base_link,0.015994976922,0.0154499706479,0.00370089402442,-0.00217603798956,-0.000338433659635,-0.000404727412388
1627477690928562823,6076,1627477690890827648,base_link,0.0169984287615,0.0153543627563,0.0034734248499,0.000588185735978,3.51098133251e-05,0.00609029177576
1627477690960673621,6077,1627477690922827648,base_link,0.0174358376053,0.0153337760872,0.00333134658464,-0.00211425451562,0.000106250168756,0.000322852982208
1627477690994005298,6078,1627477690922827648,base_link,0.0174358376053,0.0153337760872,0.00333134658464,-0.00211425451562,0.000106250168756,0.000322852982208
1627477691028214564,6079,1627477690987827648,base_link,0.0183203022907,0.0151295459555,0.00309462810049,0.00132082076743,-0.00115261878818,-0.000200877897441
1627477691060603206,6080,1627477691021035520,base_link,0.0185549433129,0.0149448491336,0.00312554433924,-6.78757205606e-05,-0.00155531859491,-0.00176363065839
1627477691094155187,6081,1627477691056035520,base_link,0.0188735798325,0.0146806124533,0.00308337167582,0.00386389181949,-0.00116927723866,0.000610479852185
1627477691127842503,6082,1627477691088035520,base_link,0.0193206199864,0.0145834856004,0.00295558620224,-0.00204237690195,0.000373226124793,0.00314381578937
1627477691160669957,6083,1627477691088035520,base_link,0.0193206199864,0.0145834856004,0.00295558620224,-0.00204237690195,0.000373226124793,0.00314381578937
1627477691193779145,6084,1627477691153248768,base_link,0.0201854482366,0.0144194086421,0.00276254525249,0.000736609683372,0.000612571835518,0.00337752094492
1627477691227485558,6085,1627477691186248768,base_link,0.020370648853,0.0141797755151,0.00272312162928,-0.00148385518696,-0.000871939118952,0.00173644907773
1627477691260554106,6086,1627477691221449728,base_link,0.0205823497398,0.0139635184095,0.00253719362271,0.000850414158776,-0.00104793999344,-0.00211547757499
1627477691293785395,6087,1627477691253449728,base_link,0.020983703732,0.0138220786782,0.00244568562478,-0.000276542385109,-0.000580619205721,0.00633448641747
1627477691328574221,6088,1627477691286449728,base_link,0.0212700776731,0.0136638567501,0.00239910373411,-0.00236381753348,-0.00061402481515,-0.000976078910753
1627477691360844999,6089,1627477691286449728,base_link,0.0212700776731,0.0136638567501,0.00239910373411,-0.00236381753348,-0.00061402481515,-0.000976078910753
1627477691393837513,6090,1627477691351650176,base_link,0.0219634356469,0.0134310454336,0.00236980157574,0.0006700680824,0.000229560188018,0.00336280092597
1627477691427186786,6091,1627477691386650176,base_link,0.0221391949453,0.0132610997073,0.00227047537052,-0.00211418117397,-0.000243832124397,0.000991843407974
1627477691460587502,6092,1627477691418855232,base_link,0.0222238091879,0.0130352874931,0.00213463044273,0.00156923942268,-0.00152953865472,-0.00084742018953
1627477691493952101,6093,1627477691451855232,base_link,0.0225641588191,0.012895789965,0.00197018901898,-3.2251351513e-05,-0.000215130508877,0.00600880011916
1627477691527670936,6094,1627477691483855232,base_link,0.0227463883931,0.0127542016446,0.00193450470045,-0.0020992369391,-0.000556871411391,-0.00116653786972
1627477691560895120,6095,1627477691517059776,base_link,0.0231513638868,0.0126957903973,0.00191385025311,0.000683546764776,0.000174303073436,-0.00220142886974
1627477691595228623,6096,1627477691550059776,base_link,0.0234700488016,0.0125369552292,0.00191371764554,0.000554274884053,0.000190450111404,0.00501043861732
1627477691628210117,6097,1627477691585059776,base_link,0.0235935196531,0.0123493333175,0.00188915126279,-0.00288828904741,-0.000378705444746,-0.000776425469667
1627477691660536073,6098,1627477691617266880,base_link,0.0238202498649,0.0122241299881,0.00169103479181,0.00296654901467,-0.00186589395162,-0.000621674116701
1627477691693817832,6099,1627477691650266880,base_link,0.023881282798,0.0119463860665,0.0016193392022,-0.000843773654196,-0.000705819460563,0.00214531482197
1627477691727803115,6100,1627477691682266880,base_link,0.0240108254714,0.0117899899769,0.00153977783356,-0.000403065816499,-0.000561897177249,-0.00295580271631
1627477691761024002,6101,1627477691715266880,base_link,0.0243809874496,0.0116925296723,0.00141047962755,0.000298558967188,-0.000546312658116,0.00461913598701
1627477691793967164,6102,1627477691750266880,base_link,0.024626698225,0.0115871919011,0.00128439929834,-0.00400106050074,-0.00076534692198,0.000614501186647
1627477691828439762,6103,1627477691782266880,base_link,0.024686222038,0.011331810172,0.00118093591429,0.00069738633465,-0.00128559547011,-0.00354231754318
1627477691861399388,6104,1627477691815266880,base_link,0.0249256586852,0.0111805837344,0.00113123474481,-0.0010899520712,-0.00153475184925,0.0064093163237
1627477691893763045,6105,1627477691847266880,base_link,0.0249700422862,0.0110209597661,0.00101784274045,-0.0022023585625,-0.00130214774981,-0.000403897138312
1627477691927780390,6106,1627477691880266880,base_link,0.0252380230669,0.0109512678533,0.000957174952734,-0.000218564062379,-0.00145187450107,0.000736326561309
1627477691960592559,6107,1627477691915474752,base_link,0.0254458904875,0.0109171976941,0.000798286697622,-0.00274542300031,-0.000863789580762,0.00348623772152
1627477691993788166,6108,1627477691947474752,base_link,0.0256118908328,0.0109018542808,0.000701010919055,-0.00239743618295,-0.00117002869956,-0.0026108501479
1627477692028373096,6109,1627477691980474752,base_link,0.0258167073904,0.0108599258875,0.000610316820551,0.000371232628822,-0.00179594743531,0.0025905976072
1627477692060675027,6110,1627477692012474752,base_link,0.02577104274,0.0107259425292,0.000603802220401,-0.00229949876666,-0.00213507260196,0.00105128926225
1627477692093908014,6111,1627477692045474752,base_link,0.0257520859674,0.0106820812718,0.000536337709655,-0.00143724610098,-0.00196965038776,-0.00266746594571
1627477692127963765,6112,1627477692080474752,base_link,0.0259574057369,0.0106838531213,0.000474933857441,0.000178987160325,-0.00208030035719,0.00663076713681
1627477692160563020,6113,1627477692112474752,base_link,0.0259833299645,0.0106649185325,0.000529764884003,-0.00213616667315,-0.000783085473813,-0.0016382355243
1627477692193773201,6114,1627477692145474752,base_link,0.0260608492737,0.0107308081054,0.000574225305268,-0.000452950247563,-0.000850856653415,-0.00336744915694
1627477692227844394,6115,1627477692177474752,base_link,0.0261491218461,0.0107145557931,0.000348329978185,0.00224646716379,-0.00268076872453,0.00142806652002
1627477692260516130,6116,1627477692210474752,base_link,0.0259104332114,0.010633420977,0.000283498213297,-0.00124452484306,-0.00270339543931,0.00357491383329
1627477692293808963,6117,1627477692244474752,base_link,0.0257741372573,0.010590621365,0.000138947849644,0.000276649487205,-0.00231895595789,-0.00196100142784
1627477692327926098,6118,1627477692276474752,base_link,0.0258510281443,0.0106283570853,0.000120628961984,0.00138697016519,0.000331092742272,0.00293505378067
1627477692361051208,6119,1627477692309474752,base_link,0.0257542287687,0.0106516614176,2.85023828394e-05,-0.00181652000174,-0.00013738591224,0.0041432227008
1627477692393878032,6120,1627477692344474752,base_link,0.0257130941483,0.0107085764594,1.58042074311e-05,-0.000815384846646,-0.000256257364526,-0.00137475132942
1627477692427932288,6121,1627477692376474752,base_link,0.0256843578843,0.0107156429816,-0.00019137350958,0.00179695093539,-0.00254841824062,0.000753878848627
1627477692460712935,6122,1627477692409474752,base_link,0.025357570513,0.0105419586223,-0.000194861640365,-0.000108312116936,-0.00174369977321,0.000663398881443
1627477692493922669,6123,1627477692442474752,base_link,0.0253023253255,0.0106098069886,-0.000231131148809,-0.00070572149707,-0.00135442521423,-0.00133922114037
1627477692527698313,6124,1627477692474474752,base_link,0.0251123214253,0.0104884671997,-0.000274558230566,0.00259074755013,-0.000709932879545,0.000985166989267
1627477692561474956,6125,1627477692507474752,base_link,0.0249614972645,0.0104541831164,-0.000323599567149,-0.00147477653809,-4.42797318101e-06,0.00391915487126
1627477692593818499,6126,1627477692542474752,base_link,0.0249751727028,0.0105808743994,-0.000428473771596,5.81556232646e-05,-0.000358038116246,-0.00299688382074
1627477692627828977,6127,1627477692542474752,base_link,0.0249751727028,0.0105808743994,-0.000428473771596,5.81556232646e-05,-0.000358038116246,-0.00299688382074
1627477692660513879,6128,1627477692607474752,base_link,0.0245127735811,0.0103372338302,-0.000268189659429,0.000379781937227,-0.00220443913713,0.00318739237264
1627477692693793963,6129,1627477692639474752,base_link,0.0244072362811,0.0103668894284,-0.000445132210974,-0.000211404054426,-0.00119661411736,-0.000294807134196
1627477692727558608,6130,1627477692672474752,base_link,0.0240841639456,0.0102612385744,-0.000345584476638,0.00176505337004,-0.000605148030445,0.000871381256729
1627477692760502030,6131,1627477692707474752,base_link,0.02382715361,0.0102250941596,-0.000423296499019,-0.00181379599962,0.000277459039353,0.0044106207788
1627477692794035266,6132,1627477692739474752,base_link,0.0237614989468,0.0102815638261,-0.000496248381223,3.66281019524e-05,-6.34540338069e-05,-0.00354270334356
1627477692828731084,6133,1627477692772474752,base_link,0.0236214981723,0.0102364009464,-0.000612560062608,0.00179088534787,9.52505506575e-05,0.000318956095725
1627477692862512287,6134,1627477692804474752,base_link,0.0233749576716,0.0102366674021,-0.000593116746298,-0.00207614316605,0.000683840771671,0.00263779400848
1627477692895508657,6135,1627477692837474752,base_link,0.0229774817754,0.0100431423192,-0.00069901138389,0.00133685604669,-0.000336672179401,0.00246108672582
1627477692928111209,6136,1627477692872474752,base_link,0.0227093455833,0.00990186623257,-0.000602299186928,2.57778447121e-05,0.000124379410408,0.00216240715235
1627477692960562675,6137,1627477692904474752,base_link,0.0225787366113,0.0100383747821,-0.00052551645686,-0.00236034346744,0.000420104595833,-0.00389262381941
1627477692993817353,6138,1627477692937474752,base_link,0.0224279091217,0.00998145044079,-0.000642387036012,0.000386654050089,0.00020679528825,0.00128420814872
1627477693029072190,6139,1627477692969474752,base_link,0.0222418614789,0.00996138488331,-0.000692055855958,-0.00155036116485,0.000283574219793,0.0055956505239
1627477693060414449,6140,1627477693002474752,base_link,0.0219917960604,0.00996306642758,-0.000774798955319,-0.00117740640417,-0.000239032437094,-0.00217082141899
1627477693093785568,6141,1627477693037474752,base_link,0.0216353510915,0.00984304971965,-0.000775945181586,0.00139146635775,0.000625973392744,0.00220859609544
1627477693128005089,6142,1627477693069474752,base_link,0.0212424563204,0.00971873795211,-0.00076020485662,-0.00184097397141,2.35934276134e-05,-0.00166992773302
1627477693161028423,6143,1627477693102474752,base_link,0.0211239761682,0.00984009086486,-0.000856924820994,-0.000959131808486,-0.000276014092378,-0.00275476719253
1627477693193811607,6144,1627477693134474752,base_link,0.020894273192,0.00977587981331,-0.000944898105211,-0.000668451772071,0.000474439351819,0.00617966707796
1627477693227844139,6145,1627477693167474752,base_link,0.020810410476,0.00991686902211,-0.000918067025982,-0.00126284407452,-0.000314848031849,1.87549740076e-05
1627477693261292482,6146,1627477693202474752,base_link,0.0205677289629,0.0098414795972,-0.00101998885715,0.000284533947706,9.59010794759e-05,-0.000322035280988
1627477693294097310,6147,1627477693234474752,base_link,0.0202771587814,0.00967100844055,-0.00111077092934,0.000868219998665,-0.000101048732176,0.00218242616393
1627477693327868669,6148,1627477693267474752,base_link,0.0200422559877,0.00966331442183,-0.00112951297176,-0.00205007148907,-0.000243114773184,0.000311987358145
1627477693360581066,6149,1627477693300474752,base_link,0.0199520517983,0.0096866262422,-0.00115104537875,0.00163276109379,0.000597098725848,0.00598524324596
